[
    {
        "name": "Silent Sam",
        "coordinates": {
            "lat": 35.91395,
            "long": -79.052375
        },
        "ref": "https://en.wikipedia.org/wiki/Silent_Sam#:~:text=On%20October%2012%2C%202015%2C%20University,applause%20from%20some%20faculty%20present.",
        "removed": true,
        "removalDate": "2018-08-20"
    },
    {
        "name": "Robert E. Lee (Duke University)",
        "coordinates": {
            "lat": 36.001664,
            "long": -78.939811
        },
        "ref": "https://www.npr.org/sections/thetwo-way/2017/08/19/544678037/duke-university-removes-robert-e-lee-statue-from-chapel-entrance",
        "removed": true,
        "removalDate": "2017-08-19"
    },
    {
        "name": "Confederate Statue (Durham County Courthouse)",
        "coordinates": {
            "lat": 35.992448,
            "long": -78.901227
        },
        "ref": "https://www.nytimes.com/2017/08/14/us/protesters-in-durham-topple-a-confederate-monument.html",
        "removed": true,
        "removalDate": "2017-08-14"
    },
    {
        "name": "Robert E. Lee Monument",
        "coordinates": {
            "lat": 29.943056,
            "long": -90.072222
        },
        "ref": "https://en.wikipedia.org/wiki/Robert_E._Lee_Monument_(New_Orleans,_Louisiana)#:~:text=On%20May%2018%2C%202017%2C%20the,crane%20from%20its%20column%20pedestal.",
        "removed": true,
        "removalDate": "2017-05-19"
    },
    {
        "name": "Confederate Monument (Fort Warren)",
        "coordinates": {
            "lat": 42.320233,
            "long": -70.927639
        },
        "ref": "https://www.bostonmagazine.com/news/2017/10/02/massachusetts-removing-confederate-monument/",
        "removed": true,
        "removalDate": "2017-10-01"
    },
    {
        "name": "Confederate Soldiers and Sailors Monument (Birmingham, Alabama)",
        "coordinates": {
            "lat": 33.52007,
            "long": -86.80948
        },
        "ref": "https://en.wikipedia.org/wiki/Confederate_Soldiers_and_Sailors_Monument_(Birmingham,_Alabama)",
        "removed": true,
        "removalDate": "2020-05-31"
    },
    {
        "name": "Charles Linn",
        "coordinates": {
            "lat": 33.52007,
            "long": -86.80948
        },
        "ref": "https://en.wikipedia.org/wiki/Statue_of_Charles_Linn",
        "removed": true,
        "removalDate": "2020-05-31"
    },
    {
        "name": "Frank Rizzo",
        "coordinates": {
            "lat": 39.954286,
            "long": -75.164292
        },
        "ref": "https://en.wikipedia.org/wiki/Statue_of_Frank_Rizzo",
        "removed": true,
        "removalDate": "2020-06-02"
    },
    {
        "name": "Orville L. Hubbard",
        "coordinates": {
            "lat": 42.308141,
            "long": -83.240129
        },
        "ref": "https://en.wikipedia.org/wiki/Statue_of_Orville_L._Hubbard",
        "removed": true,
        "removalDate": "2020-06-05"
    },
    {
        "name": "Williams Wickham",
        "coordinates": {
            "lat": 37.546685,
            "long": -77.450515
        },
        "ref": "https://en.wikipedia.org/wiki/Statue_of_Williams_Carter_Wickham",
        "removed": true,
        "removalDate": "2020-06-07"
    },
    {
        "name": "Edward Colston",
        "coordinates": {
            "lat": 51.453342,
            "long": -2.597429
        },
        "ref": "https://en.wikipedia.org/wiki/Statue_of_Edward_Colston",
        "removed": true,
        "removalDate": "2020-06-07"
    },
    {
        "name": "Robert Milligan",
        "coordinates": {
            "lat": 51.50735,
            "long": -0.02389
        },
        "ref": "https://en.wikipedia.org/wiki/Statue_of_Robert_Milligan",
        "removed": true,
        "removalDate": "2020-06-09"
    },
    {
        "name": "Confederate Memorial (Hemming Park)",
        "coordinates": {
            "lat": 30.329326,
            "long": -81.659476
        },
        "ref": "https://www.actionnewsjax.com/news/local/duval-county/breaking-confederate-monument-hemming-park-appears-be-its-way-down/56ES27ARXFAPDEGGHCEW5RKRUQ/",
        "removed": true,
        "removalDate": "2020-06-09"
    },
    {
        "name": "King Leopold II",
        "coordinates": {
            "lat": 50.840649,
            "long": 4.364374
        },
        "ref": "https://en.wikipedia.org/wiki/Statue_of_Leopold_II_of_Belgium,_Ekeren",
        "removed": true,
        "removalDate": "2020-06-09"
    },
    {
        "name": "Christopher Columbus",
        "coordinates": {
            "lat": 37.547287,
            "long": -77.476483
        },
        "ref": "https://en.wikipedia.org/wiki/Statue_of_Christopher_Columbus_(Richmond,_Virginia)",
        "removed": true,
        "removalDate": "2020-06-10"
    },
    {
        "name": "Christopher Columbus",
        "coordinates": {
            "lat": 44.955325,
            "long": -93.102169
        },
        "ref": "https://en.wikipedia.org/wiki/Statue_of_Christopher_Columbus_(Saint_Paul,_Minnesota)",
        "removed": true,
        "removalDate": "2020-06-10"
    },
    {
        "name": "Jefferson Davis Monument",
        "coordinates": {
            "lat": 37.558743,
            "long": -77.467795
        },
        "ref": "https://en.wikipedia.org/wiki/Jefferson_Davis_Memorial_(Richmond,_Virginia)",
        "removed": true,
        "removalDate": "2020-06-10"
    },
    {
        "name": "Christopher Columbus",
        "coordinates": {
            "lat": 42.361298,
            "long": -71.051188
        },
        "ref": "https://en.wikipedia.org/wiki/Statue_of_Christopher_Columbus_(North_End,_Boston)#:~:text=A%20statue%20of%20Christopher%20Columbus,evening%20of%20June%209%2C%202020.",
        "removed": true,
        "removalDate": "2020-06-11"
    },
    {
        "name": "John Fane Charles Hamilton",
        "coordinates": {
            "lat": -37.787074,
            "long": 175.281260
        },
        "ref": "https://en.wikipedia.org/wiki/Statue_of_John_Fane_Charles_Hamilton",
        "removed": true,
        "removalDate": "2020-06-12"
    },
    {
        "name": "Johnny Reb",
        "coordinates": {
            "lat": 36.850252,
            "long": -76.289923
        },
        "ref": "https://en.wikipedia.org/wiki/Norfolk_Confederate_Monument#Removal",
        "removed": true,
        "removalDate": "2020-06-12"
    },
    {
        "name": "Christopher Columbus",
        "coordinates": {
            "lat": 39.746187,
            "long": -75.547372
        },
        "ref": "https://en.wikipedia.org/wiki/Statue_of_Christopher_Columbus_(Wilmington,_Delaware)",
        "removed": true,
        "removalDate": "2020-06-12"
    },
    {
        "name": "Caesar Rodney",
        "coordinates": {
            "lat": 39.746187,
            "long": -75.547372
        },
        "ref": "https://en.wikipedia.org/wiki/Equestrian_statue_of_Caesar_Rodney",
        "removed": true,
        "removalDate": "2020-06-12"
    },
    {
        "name": "Christopher Columbus",
        "coordinates": {
            "lat": 32.644279,
            "long": -117.007683
        },
        "ref": "https://www.sandiegouniontribune.com/news/public-safety/story/2020-06-12/chula-vista-puts-christopher-columbus-statue-in-storage-citing-public-safety-concerns",
        "removed": true,
        "removalDate": "2020-06-12"
    },
    {
        "name": "Jefferson Davis",
        "coordinates": {
            "lat": 38.1867,
            "long": -84.8753
        },
        "ref": "https://en.wikipedia.org/wiki/Statue_of_Jefferson_Davis_(Frankfort,_Kentucky)",
        "removed": true,
        "removalDate": "2020-06-13"
    },
    {
        "name": "The Pioneer and Pioneer Mother",
        "coordinates": {
            "lat": 44.04578,
            "long": -123.07579
        },
        "ref": "https://en.wikipedia.org/wiki/The_Pioneer_(Eugene,_Oregon)",
        "removed": true,
        "removalDate": "2020-06-13"
    },
    {
        "name": "Thomas Jefferson",
        "coordinates": {
            "lat": 45.561430,
            "long": -122.671957
        },
        "ref": "https://www.kgw.com/article/news/local/statue-of-george-washington-toppled-and-spray-pained-in-hollywood-neighborhood/283-6f3d5c28-74c6-4307-88d7-493c5dfcd59b",
        "removed": true,
        "removalDate": "2020-06-14"
    },
    {
        "name": "Juan de Oñate",
        "coordinates": {
            "lat": 36.105758,
            "long": -106.031727
        },
        "ref": "https://en.wikipedia.org/wiki/Equestrian_statue_of_Juan_de_O%C3%B1ate",
        "removed": true,
        "removalDate": "2020-06-15"
    },
    {
        "name": "John Sutter",
        "coordinates": {
            "lat": 38.571078,
            "long": -121.469386
        },
        "ref": "https://www.latimes.com/california/story/2020-06-16/statue-of-colonizer-john-sutter-removed-after-being-defaced-in-sacramento",
        "removed": true,
        "removalDate": "2020-06-15"
    },
    {
        "name": "Josephus Daniels",
        "coordinates": {
            "lat": 35.777704,
            "long": -78.642149
        },
        "ref": "https://en.wikipedia.org/wiki/Statue_of_Josephus_Daniels",
        "removed": true,
        "removalDate": "2020-06-16"
    },
    {
        "name": "Albert Pike",
        "coordinates": {
            "lat": 38.8946,
            "long": -77.0157
        },
        "ref": "https://en.wikipedia.org/wiki/Statue_of_Albert_Pike",
        "removed": true,
        "removalDate": "2020-06-19"
    },
    {
        "name": "Junípero Serra",
        "coordinates": {
            "lat": 37.539149,
            "long": -122.363551
        },
        "ref": "https://www.latimes.com/california/story/2020-06-20/junipero-serra-statue-toppled-in-downtown-l-a",
        "removed": true,
        "removalDate": "2020-06-19"
    },
    {
        "name": "Francis Scott Key",
        "coordinates": {
            "lat": 37.771419,
            "long": -122.466693
        },
        "ref": "https://en.wikipedia.org/wiki/Statue_of_Francis_Scott_Key_(San_Francisco)",
        "removed": true,
        "removalDate": "2020-06-19"
    },
    {
        "name": "Ulysses S. Grant",
        "coordinates": {
            "lat": 37.769166,
            "long": -122.481064
        },
        "ref": "https://www.theguardian.com/us-news/2020/jun/20/san-francisco-statues-ulysses-s-grant-junipero-serra-francis-scott-key",
        "removed": true,
        "removalDate": "2020-06-19"
    },
    {
        "name": "Robert E. Lee Bust",
        "coordinates": {
            "lat": 26.644297,
            "long": -81.870054
        },
        "ref": "https://www.news-press.com/story/news/local/2020/06/02/robert-e-lee-bust-removed-fort-myers-post/5316700002/",
        "removed": true,
        "removalDate": "2020-06-01"
    },
    {
        "name": "Robert E. Lee",
        "coordinates": {
            "lat": 32.378790,
            "long": -86.271965
        },
        "ref": "https://www.montgomeryadvertiser.com/story/news/2020/06/02/robert-e-lee-statue-put-storage-city-defers-decisions-school-board/5316942002/",
        "removed": true,
        "removalDate": "2020-06-01"
    },
    {
        "name": "Confederate Soldiers and Sailors Monument",
        "coordinates": {
            "lat": 39.73074,
            "long": -86.14397
        },
        "ref": "https://en.wikipedia.org/wiki/Confederate_Soldiers_and_Sailors_Monument_(Indianapolis)",
        "removed": true,
        "removalDate": "2020-06-08"
    },
    {
        "name": "Raphael Semmes",
        "coordinates": {
            "lat": 30.69037,
            "long": -88.04003
        },
        "ref": "https://en.wikipedia.org/wiki/Statue_of_Raphael_Semmes",
        "removed": true,
        "removalDate": "2020-06-05"
    },
    {
        "name": "John B. Castleman Monument",
        "coordinates": {
            "lat": 38.412311,
            "long": -85.747381
        },
        "ref": "https://en.wikipedia.org/wiki/John_B._Castleman_Monument",
        "removed": true,
        "removalDate": "2020-06-08"
    },
    {
        "name": "Monument to Confederate war soldiers",
        "coordinates": {
            "lat": 32.757222,
            "long": -97.332778
        },
        "ref": "https://en.wikipedia.org/wiki/Monument_to_Confederate_war_soldiers,_Fort_Worth",
        "removed": true,
        "removalDate": "2020-06-13"
    },
    {
        "name": "Spirit of the Confederacy",
        "coordinates": {
            "lat": 29.759867,
            "long": -95.371640
        },
        "ref": "https://en.wikipedia.org/wiki/Spirit_of_the_Confederacy",
        "removed": true,
        "removalDate": "2020-06-17"
    },
    {
        "name": "Gadsden Confederate Memorial",
        "coordinates": {
            "lat": 30.588967,
            "long": -84.576330
        },
        "ref": "https://en.wikipedia.org/wiki/Gadsden_Confederate_Memorial",
        "removed": true,
        "removalDate": "2020-06-11"
    },
    {
        "name": "DeKalb County Confederate Monument",
        "coordinates": {
            "lat": 33.774858,
            "long": -84.297146
        },
        "ref": "https://en.wikipedia.org/wiki/DeKalb_County_Confederate_Monument",
        "removed": true,
        "removalDate": "2020-06-18"
    },
    {
        "name": "Stand Watie and Confederate Soldier Fountain",
        "coordinates": {
            "lat": 35.852364,
            "long": -94.991108
        },
        "ref": "https://www.kiro7.com/news/trending/cherokee-nation-removes-confederate-monuments-capitol-square/MZ7T765IARDXFEXWOT6TNXRJ7I/",
        "removed": true,
        "removalDate": "2020-06-13"
    },
    {
        "name": "Stand Watie Monument",
        "coordinates": {
            "lat": 35.852364,
            "long": -94.991108
        },
        "ref": "https://www.kiro7.com/news/trending/cherokee-nation-removes-confederate-monuments-capitol-square/MZ7T765IARDXFEXWOT6TNXRJ7I/",
        "removed": true,
        "removalDate": "2020-06-13"
    },
    {
        "name": "Hey Reb!",
        "coordinates": {
            "lat": 36.108291,
            "long": -115.138503
        },
        "ref": "https://en.wikipedia.org/wiki/Hey_Reb!_(sculpture)",
        "removed": true,
        "removalDate": "2020-06-16"
    },
    {
        "name": "Memorial to Company A, Capitol Guards",
        "coordinates": {
            "lat": 34.738333,
            "long": -92.265
        },
        "ref": "https://en.wikipedia.org/wiki/Memorial_to_Company_A,_Capitol_Guards",
        "removed": true,
        "removalDate": "2020-06-18"
    },
    {
        "name": "North Carolina State Confederate Monument",
        "coordinates": {
            "lat": 35.781380,
            "long": -78.639802
        },
        "ref": "https://www.ncpedia.org/monument/confederate-monument-state",
        "removed": true,
        "removalDate": "2020-06-19"
    },
    {
        "name": "Pine Bluff Confederate Monument",
        "coordinates": {
            "lat": 34.228630,
            "long": -91.996479
        },
        "ref": "https://en.wikipedia.org/wiki/Pine_Bluff_Confederate_Monument",
        "removed": true,
        "removalDate": "2020-06-20"
    },
    {
        "name": "Appomattox",
        "coordinates": {
            "lat": 38.803917,
            "long": -77.047194
        },
        "ref": "https://en.wikipedia.org/wiki/Appomattox_(statue)",
        "removed": true,
        "removalDate": "2020-05-31"
    },
    {
        "name": "Slave Auction Block",
        "coordinates": {
            "lat": 38.303124,
            "long": -77.461650
        },
        "ref": "https://en.wikipedia.org/wiki/Slave_Auction_Block,_Fredericksburg",
        "removed": true,
        "removalDate": "2020-06-05"
    },
    {
        "name": "Portsmouth Confederate Monument",
        "coordinates": {
            "lat": 36.835858,
            "long": -76.300925
        },
        "ref": "https://en.wikipedia.org/wiki/Confederate_Monument_(Portsmouth,_Virginia)",
        "removed": true,
        "removalDate": "2020-06-10"
    },
    {
        "name": "Howitzer Monument",
        "coordinates": {
            "lat": 37.548685,
            "long": -77.454960
        },
        "ref": "https://en.wikipedia.org/wiki/Howitzer_Monument",
        "removed": true,
        "removalDate": "2020-06-16"
    },
    {
        "name": "Christopher Columbus",
        "coordinates": {
            "lat": 39.93653,
            "long": -75.09168
        },
        "ref": "https://en.wikipedia.org/wiki/Statue_of_Christopher_Columbus_(Camden,_New_Jersey)",
        "removed": true,
        "removalDate": "2020-06-11"
    },
    {
        "name": "Christopher Columbus",
        "coordinates": {
            "lat": 29.729544,
            "long": -95.391632
        },
        "ref": "https://en.wikipedia.org/wiki/Statue_of_Christopher_Columbus_(Houston)",
        "removed": true,
        "removalDate": "2020-06-11"
    },
    {
        "name": "Christopher Columbus",
        "coordinates": {
            "lat": 33.997338,
            "long": -81.049136
        },
        "ref": "https://en.wikipedia.org/wiki/Statue_of_Christopher_Columbus_(Columbia,_South_Carolina)",
        "removed": true,
        "removalDate": "2020-06-12"
    },
    {
        "name": "Christopher Columbus",
        "coordinates": {
            "lat": 41.561991,
            "long": -72.646362
        },
        "ref": "https://en.wikipedia.org/wiki/Statue_of_Christopher_Columbus_(Middletown,_Connecticut)",
        "removed": true,
        "removalDate": "2020-06-13"
    },
    {
        "name": "Bust of Christopher Columbus",
        "coordinates": {
            "lat": 42.330192,
            "long": -83.042275
        },
        "ref": "https://en.wikipedia.org/wiki/Bust_of_Christopher_Columbus_(Detroit)",
        "removed": true,
        "removalDate": "2020-06-15"
    },
    {
        "name": "Christopher Columbus",
        "coordinates": {
            "lat": 39.969609,
            "long": -82.988038
        },
        "ref": "https://en.wikipedia.org/wiki/Statue_of_Christopher_Columbus_(Columbus_State_Community_College)",
        "removed": true,
        "removalDate": "2020-06-19"
    },
    {
        "name": "Christopher Columbus",
        "coordinates": {
            "lat": 38.605251,
            "long": -90.243061
        },
        "ref": "https://en.wikipedia.org/wiki/Statue_of_Christopher_Columbus_(St._Louis)",
        "removed": true,
        "removalDate": "2020-06-16"
    },
    {
        "name": "Christopher Columbus",
        "coordinates": {
            "lat": 37.802955,
            "long": -122.406134
        },
        "ref": "https://en.wikipedia.org/wiki/Statue_of_Christopher_Columbus_(San_Francisco)",
        "removed": true,
        "removalDate": "2020-06-18"
    },
    {
        "name": "Juan de Oñate",
        "coordinates": {
            "lat": 35.097779,
            "long": -106.668301
        },
        "ref": "https://en.wikipedia.org/wiki/Statue_of_Juan_de_O%C3%B1ate_(Albuquerque,_New_Mexico)",
        "removed": true,
        "removalDate": "2020-06-16"
    },
    {
        "name": "Diego de Vargas",
        "coordinates": {
            "lat": 35.686995,
            "long": -105.936278
        },
        "ref": "https://statues.vanderkrogt.net/object.php?webpage=ST&record=usnm21",
        "removed": true,
        "removalDate": "2020-06-18"
    },
    {
        "name": "Edward W. Carmack",
        "coordinates": {
            "lat": 36.167378,
            "long": -86.784337
        },
        "ref": "https://en.wikipedia.org/wiki/Statue_of_Edward_W._Carmack",
        "removed": true,
        "removalDate": "2020-05-30"
    },
    {
        "name": "Frank Rizzo Mural",
        "coordinates": {
            "lat": 39.938541,
            "long": -75.157801
        },
        "ref": "https://www.phillyvoice.com/frank-rizzo-mural-italian-market-south-philadelphia-removal-mural-arts-former-mayor-police-commissioner-blank-canvas/",
        "removed": true,
        "removalDate": "2020-06-07"
    },
    {
        "name": "One Riot, One Ranger",
        "coordinates": {
            "lat": 32.847197,
            "long": -96.851335
        },
        "ref": "https://en.wikipedia.org/wiki/One_Riot,_One_Ranger",
        "removed": true,
        "removalDate": "2020-06-04"
    },
    {
        "name": "Jerry Richardson",
        "coordinates": {
            "lat": 35.225846,
            "long": -80.852825
        },
        "ref": "https://en.wikipedia.org/wiki/Statue_of_Jerry_Richardson",
        "removed": true,
        "removalDate": "2020-06-10"
    },
    {
        "name": "Richmond Police Memorial",
        "coordinates": {
            "lat": 37.544489,
            "long": -77.472060
        },
        "ref": "https://en.wikipedia.org/wiki/Richmond_Police_Memorial",
        "removed": true,
        "removalDate": "2020-06-11"
    },
    {
        "name": "Delaware Law Enforcement Memorial",
        "coordinates": {
            "lat": 39.1565,
            "long": -75.521167
        },
        "ref": "https://en.wikipedia.org/wiki/Delaware_Law_Enforcement_Memorial",
        "removed": true,
        "removalDate": "2020-06-12"
    },
    {
        "name": "Bust of John McDonogh",
        "coordinates": {
            "lat": 29.952874,
            "long": -90.076398
        },
        "ref": "https://en.wikipedia.org/wiki/Bust_of_John_McDonogh",
        "removed": true,
        "removalDate": "2020-06-13"
    },
    {
        "name": "George Washington",
        "coordinates": {
            "lat": 45.542298,
            "long": -122.604561
        },
        "ref": "https://www.kgw.com/article/news/local/statue-of-george-washington-toppled-and-spray-pained-in-hollywood-neighborhood/283-6f3d5c28-74c6-4307-88d7-493c5dfcd59b",
        "removed": true,
        "removalDate": "2020-06-19"
    },
    {
        "name": "Calvin Griffith",
        "coordinates": {
            "lat": 44.981877,
            "long": -93.277530
        },
        "ref": "https://en.wikipedia.org/wiki/Statue_of_Calvin_Griffith",
        "removed": true,
        "removalDate": "2020-06-19"
    },
    {
        "name": "Monument to George Preston Marshall",
        "coordinates": {
            "lat": 38.889843,
            "long": -76.973325
        },
        "ref": "https://www.washingtonpost.com/sports/2020/06/19/segregationist-george-preston-marshalls-monument-removed-rfk-grounds/#:~:text=As%20morning%20broke%20in%20Washington,the%20grounds%20outside%20RFK%20Stadium.",
        "removed": true,
        "removalDate": "2020-06-19"
    },
    {
        "name": "John Cass",
        "coordinates": {
            "lat": 51.515813,
            "long": -0.091143
        },
        "ref": "https://en.wikipedia.org/wiki/Statue_of_John_Cass",
        "removed": true,
        "removalDate": "2020-06-11"
    },
    {
        "name": "Dunham Massey Hall sundial",
        "coordinates": {
            "lat": 53.382626,
            "long": -2.400307
        },
        "ref": "https://en.wikipedia.org/wiki/Dunham_Massey_Hall_sundial",
        "removed": true,
        "removalDate": "2020-06-11"
    }
]